{
	"zoom":2,
	"lat":17.040182144806664, 
	"lng":-10.8984375,
	"iccas":[
			    {
			        "name": "MEXICO",
			        "url": "country.html",
			        "value": "",
			        "lat": 23.634501,
			        "lng": -102.552784,
			        "short": "MEX",
			        "sites": 2,
			        "textSites": [ {
			        					"name": "San Crisanto",
			        					"url": "icca.html"
			        				},
			        			    {
			        					"name": "",
			        					"url": ""
			        				}
			        			  ]
			    },
			    {
			        "name": "FIJI",
			        "url": "",
			        "value": "",
			        "lat": -16.578193,
			        "lng": 179.414413,
			        "short": "FIJ",
			        "sites": 1,
			        "textSites": [ {
			        					"name": "",
			        					"url": ""
			        				}
			        			  ]
			    },
			    {
			        "name": "KENYA",
			        "url": "",
			        "value": "",
			        "lat": -0.023559,
			        "lng":  37.906193,
			        "short": "KEN",
			        "sites": 3,
			        "textSites": [ {
			        					"name": "",
			        					"url": ""
			        				},
			        			    {
			        					"name": "",
			        					"url": ""
			        				},
			        			    {
			        					"name": "",
			        					"url": ""
			        				}
			        			  ]
			    },
			    {
			        "name": "HAITI",
			        "url": "",
			        "value": "",
			        "lat": 18.971187,
			        "lng":  -72.285215,
			        "short": "HAI",
			        "sites": 4,
			        "textSites": [ {
			        					"name": "",
			        					"url": ""
			        				},
			        			    {
			        					"name": "",
			        					"url": ""
			        				},
			        			    {
			        					"name": "",
			        					"url": ""
			        				},
			        			    {
			        					"name": "",
			        					"url": ""
			        				}
			        			  ]
			    },
			    {
			        "name": "PHILIPHINES",
			        "url": "",
			        "value": "",
			        "lat": 12.879721, 
			        "lng": 121.774017,
			        "short": "PHI",
			        "sites": 1,
			        "textSites": [ {
			        					"name": "",
			        					"url": ""
			        				}
			        			  ]
			    } 
    ]
}